zip,lat,lng,city,population,county_name
60002,42.46973,-88.08716,Antioch,24066,Lake
60004,42.11201,-87.97917,Arlington Heights,50915,Cook
60005,42.06394,-87.98568,Arlington Heights,29539,Cook
60007,42.0076,-87.99298,Elk Grove Village,33420,Cook
60008,42.07441,-88.02265,Rolling Meadows,21833,Cook
60010,42.15227,-88.16351,Barrington,46087,Lake
60012,42.27204,-88.31267,Crystal Lake,10958,McHenry
60013,42.22038,-88.23584,Cary,25827,McHenry
60014,42.232,-88.32735,Crystal Lake,48443,McHenry
60015,42.1725,-87.87479,Deerfield,27452,Lake
60016,42.04972,-87.89166,Des Plaines,59637,Cook
60018,41.99744,-87.89693,Des Plaines,30386,Cook
60020,42.39198,-88.1775,Fox Lake,9827,Lake
60021,42.19485,-88.21823,Fox River Grove,5548,McHenry
60022,42.13608,-87.76761,Glencoe,8477,Cook
60025,42.0754,-87.82043,Glenview,41014,Cook
60026,42.09225,-87.83744,Glenview,14118,Cook
60029,42.05926,-87.77836,Golf,560,Cook
60030,42.33666,-88.04459,Grayslake,36817,Lake
60031,42.37504,-87.94113,Gurnee,37172,Lake
60033,42.42479,-88.60744,Harvard,13681,McHenry
60034,42.45621,-88.41945,Hebron,2077,McHenry
60035,42.18371,-87.81056,Highland Park,29734,Lake
60040,42.20631,-87.81304,Highwood,5366,Lake
60041,42.36832,-88.15543,Ingleside,8897,Lake
60042,42.27928,-88.19789,Island Lake,8420,McHenry
60043,42.08885,-87.71458,Kenilworth,2512,Cook
60044,42.28534,-87.86792,Lake Bluff,10003,Lake
60045,42.23838,-87.86979,Lake Forest,21131,Lake
60046,42.41609,-88.06042,Lake Villa,35286,Lake
60047,42.20226,-88.04547,Lake Zurich,42637,Lake
60048,42.29522,-87.94981,Libertyville,29058,Lake
60050,42.33106,-88.29554,Mchenry,32732,McHenry
60051,42.35416,-88.22936,Mchenry,23298,McHenry
60053,42.04234,-87.78897,Morton Grove,23256,Cook
60056,42.06654,-87.93438,Mount Prospect,55250,Cook
60060,42.26991,-88.03972,Mundelein,37208,Lake
60061,42.23375,-87.96073,Vernon Hills,27004,Lake
60062,42.12655,-87.84438,Northbrook,40459,Cook
60064,42.32251,-87.86059,North Chicago,15705,Lake
60067,42.10658,-88.06539,Palatine,38177,Cook
60068,42.0125,-87.84355,Park Ridge,37736,Cook
60069,42.19761,-87.9261,Lincolnshire,8186,Lake
60070,42.10342,-87.93006,Prospect Heights,16049,Cook
60071,42.46376,-88.31287,Richmond,3581,McHenry
60072,42.40674,-88.30586,Ringwood,1021,McHenry
60073,42.34816,-88.10978,Round Lake,61706,Lake
60074,42.13148,-88.02657,Palatine,39478,Cook
60076,42.03524,-87.72989,Skokie,31867,Cook
60077,42.03477,-87.75719,Skokie,28329,Cook
60081,42.45072,-88.22624,Spring Grove,9660,McHenry
60083,42.43614,-87.9459,Wadsworth,9990,Lake
60084,42.26788,-88.14094,Wauconda,16612,Lake
60085,42.35333,-87.86825,Waukegan,70850,Lake
60087,42.40344,-87.85381,Waukegan,26678,Lake
60088,42.30638,-87.85275,Great Lakes,12662,Lake
60089,42.16693,-87.96064,Buffalo Grove,41392,Lake
60090,42.1295,-87.92197,Wheeling,38476,Cook
60091,42.07702,-87.72809,Wilmette,27367,Cook
60093,42.10441,-87.75872,Winnetka,19441,Cook
60096,42.48091,-87.82974,Winthrop Harbor,6803,Lake
60097,42.39598,-88.3647,Wonder Lake,10826,McHenry
60098,42.32526,-88.45785,Woodstock,32526,McHenry
60099,42.46126,-87.86986,Zion,30934,Lake
60101,41.93065,-88.01184,Addison,39216,DuPage
60102,42.16404,-88.30649,Algonquin,32739,McHenry
60103,41.97942,-88.20634,Bartlett,42196,DuPage
60104,41.88284,-87.87648,Bellwood,18999,Cook
60106,41.96046,-87.9419,Bensenville,20462,DuPage
60107,42.02214,-88.17931,Streamwood,40437,Cook
60108,41.94927,-88.09176,Bloomingdale,22766,DuPage
60109,42.04982,-88.54598,Burlington,568,Kane
60110,42.12292,-88.28591,Carpentersville,39333,Kane
60111,42.00818,-88.82811,Clare,150,DeKalb
60112,41.92432,-88.69089,Cortland,4356,DeKalb
60113,41.93221,-88.96583,Creston,339,Ogle
60115,41.90082,-88.7548,Dekalb,45325,DeKalb
60118,42.1067,-88.30525,Dundee,15836,Kane
60119,41.86048,-88.47667,Elburn,10246,Kane
60120,42.03454,-88.23847,Elgin,50922,Kane
60123,42.04022,-88.31131,Elgin,48952,Kane
60124,42.02582,-88.39709,Elgin,22338,Kane
60126,41.89644,-87.94202,Elmhurst,48410,DuPage
60129,42.02643,-88.95633,Esmond,260,DeKalb
60130,41.86642,-87.81738,Forest Park,14041,Cook
60131,41.93883,-87.88445,Franklin Park,18025,Cook
60133,41.97765,-88.14302,Hanover Park,38400,Cook
60134,41.87857,-88.34194,Geneva,29401,Kane
60135,42.11225,-88.67746,Genoa,6906,DeKalb
60136,42.10468,-88.37827,Gilberts,7742,Kane
60137,41.86517,-88.06187,Glen Ellyn,38279,DuPage
60139,41.91929,-88.07787,Glendale Heights,34364,DuPage
60140,42.07839,-88.50655,Hampshire,17639,Kane
60141,41.85786,-87.838,Hines,216,Cook
60142,42.17566,-88.44239,Huntley,28121,McHenry
60143,41.97306,-88.02155,Itasca,10996,DuPage
60144,41.83594,-88.5206,Kaneville,69,Kane
60145,42.09364,-88.77654,Kingston,2673,DeKalb
60146,42.09947,-88.88133,Kirkland,2655,DeKalb
60148,41.87419,-88.01817,Lombard,52963,DuPage
60150,41.92493,-88.88861,Malta,1692,DeKalb
60151,41.91613,-88.56665,Maple Park,4024,Kane
60152,42.23695,-88.62554,Marengo,12345,McHenry
60153,41.8793,-87.84327,Maywood,23810,Cook
60154,41.84749,-87.89167,Westchester,16573,Cook
60155,41.85781,-87.85636,Broadview,7829,Cook
60156,42.19139,-88.34581,Lake In The Hills,28886,McHenry
60157,41.97464,-88.05537,Medinah,2502,DuPage
60160,41.90414,-87.86064,Melrose Park,25412,Cook
60162,41.86752,-87.90222,Hillside,8165,Cook
60163,41.88891,-87.90897,Berkeley,5161,Cook
60164,41.91753,-87.90066,Melrose Park,21600,Cook
60165,41.90325,-87.88077,Stone Park,4923,Cook
60169,42.05039,-88.11666,Hoffman Estates,33667,Cook
60171,41.92507,-87.83843,River Grove,10148,Cook
60172,41.97968,-88.0896,Roselle,24551,DuPage
60173,42.05159,-88.05196,Schaumburg,12162,Cook
60174,41.92723,-88.29934,Saint Charles,31405,Kane
60175,41.947,-88.39103,Saint Charles,25734,Kane
60176,41.95816,-87.86891,Schiller Park,11704,Cook
60177,41.98991,-88.30998,South Elgin,23109,Kane
60178,42.00638,-88.66896,Sycamore,22413,DeKalb
60180,42.22529,-88.52456,Union,2077,McHenry
60181,41.87823,-87.97633,Villa Park,28801,DuPage
60184,41.95248,-88.25372,Wayne,2357,DuPage
60185,41.89482,-88.21262,West Chicago,36129,DuPage
60187,41.87242,-88.11229,Wheaton,29708,DuPage
60188,41.9159,-88.12924,Carol Stream,42602,DuPage
60189,41.83975,-88.11787,Wheaton,30427,DuPage
60190,41.8717,-88.15683,Winfield,11143,DuPage
60191,41.96613,-87.98076,Wood Dale,14147,DuPage
60192,42.0737,-88.18223,Hoffman Estates,15650,Cook
60193,42.01177,-88.09624,Schaumburg,40248,Cook
60194,42.03363,-88.11152,Schaumburg,18946,Cook
60195,42.06708,-88.09126,Schaumburg,5568,Cook
60201,42.05662,-87.69735,Evanston,42296,Cook
60202,42.03045,-87.68954,Evanston,32861,Cook
60203,42.04902,-87.71749,Evanston,4188,Cook
60301,41.88876,-87.79919,Oak Park,2536,Cook
60302,41.89463,-87.78971,Oak Park,32048,Cook
60304,41.87243,-87.78948,Oak Park,17641,Cook
60305,41.895,-87.81936,River Forest,11064,Cook
60401,41.34396,-87.61374,Beecher,7779,Will
60402,41.83469,-87.79139,Berwyn,63554,Cook
60403,41.57228,-88.11399,Crest Hill,18254,Will
60404,41.50876,-88.22307,Shorewood,18796,Will
60406,41.65472,-87.68184,Blue Island,25256,Cook
60407,41.23056,-88.26933,Braceville,1696,Grundy
60408,41.26375,-88.21672,Braidwood,5649,Will
60409,41.61324,-87.55132,Calumet City,36955,Cook
60410,41.42205,-88.21366,Channahon,12791,Will
60411,41.50869,-87.59056,Chicago Heights,57800,Cook
60415,41.70292,-87.77881,Chicago Ridge,14254,Cook
60416,41.29311,-88.28182,Coal City,9164,Grundy
60417,41.42887,-87.59319,Crete,15225,Will
60419,41.62774,-87.59943,Dolton,22644,Cook
60420,41.08772,-88.41721,Dwight,4812,Livingston
60421,41.43127,-88.09955,Elwood,3843,Will
60422,41.53698,-87.68411,Flossmoor,9768,Cook
60423,41.47957,-87.83793,Frankfort,30938,Will
60424,41.1682,-88.32732,Gardner,2465,Grundy
60425,41.54551,-87.61171,Glenwood,8912,Cook
60426,41.61032,-87.65341,Harvey,28924,Cook
60428,41.59979,-87.69054,Markham,12271,Cook
60429,41.57366,-87.68409,Hazel Crest,15387,Cook
60430,41.55767,-87.66468,Homewood,20227,Cook
60431,41.53267,-88.20524,Joliet,23219,Will
60432,41.54029,-88.04151,Joliet,20222,Will
60433,41.49967,-88.04321,Joliet,16629,Will
60435,41.54542,-88.12991,Joliet,49863,Will
60436,41.49231,-88.12256,Joliet,18945,Will
60437,41.16305,-88.55351,Kinsman,183,Grundy
60438,41.56661,-87.55086,Lansing,28960,Cook
60439,41.67522,-87.98217,Lemont,23422,Cook
60440,41.70022,-88.07509,Bolingbrook,52246,Will
60441,41.59298,-88.05067,Lockport,35415,Will
60442,41.39275,-87.96353,Manhattan,10531,Will
60443,41.50372,-87.74683,Matteson,21554,Cook
60444,41.24234,-88.40224,Mazon,1721,Grundy
60445,41.63501,-87.7362,Midlothian,25930,Cook
60446,41.6318,-88.10459,Romeoville,40085,Will
60447,41.4882,-88.32419,Minooka,14220,Grundy
60448,41.5377,-87.89374,Mokena,26710,Will
60449,41.41569,-87.77244,Monee,9400,Will
60450,41.36951,-88.43282,Morris,20460,Grundy
60451,41.5069,-87.96071,New Lenox,34945,Will
60452,41.60767,-87.75535,Oak Forest,28324,Cook
60453,41.71427,-87.75283,Oak Lawn,56420,Cook
60455,41.74211,-87.80863,Bridgeview,16479,Cook
60456,41.73123,-87.73106,Hometown,4308,Cook
60457,41.72464,-87.82808,Hickory Hills,14018,Cook
60458,41.74892,-87.83453,Justice,15288,Cook
60459,41.74446,-87.76858,Burbank,28908,Cook
60460,41.0012,-88.53656,Odell,1333,Livingston
60461,41.51665,-87.69085,Olympia Fields,4917,Cook
60462,41.62489,-87.83245,Orland Park,40305,Cook
60463,41.66097,-87.78998,Palos Heights,14926,Cook
60464,41.66249,-87.86183,Palos Park,9715,Cook
60465,41.69844,-87.82886,Palos Hills,17473,Cook
60466,41.47904,-87.68284,Park Forest,21989,Cook
60467,41.60181,-87.88989,Orland Park,26628,Cook
60468,41.33633,-87.81131,Peotone,6044,Will
60469,41.62825,-87.68712,Posen,5780,Cook
60470,41.16897,-88.64107,Ransom,497,La Salle
60471,41.47959,-87.73402,Richton Park,14055,Cook
60472,41.64375,-87.7088,Robbins,4870,Cook
60473,41.59738,-87.59978,South Holland,22201,Cook
60474,41.18539,-88.26673,South Wilmington,986,Grundy
60475,41.47271,-87.62786,Steger,9674,Will
60476,41.56864,-87.60671,Thornton,2493,Cook
60477,41.57255,-87.7887,Tinley Park,37919,Cook
60478,41.56381,-87.72468,Country Club Hills,17112,Cook
60479,41.22869,-88.51792,Verona,934,Grundy
60480,41.72896,-87.88088,Willow Springs,5370,Cook
60481,41.28398,-88.12306,Wilmington,11540,Will
60482,41.68735,-87.79106,Worth,10916,Cook
60484,41.44205,-87.70623,University Park,6580,Will
60487,41.56359,-87.83423,Tinley Park,26588,Cook
60490,41.67474,-88.14442,Bolingbrook,22202,Will
60491,41.60278,-87.95988,Homer Glen,22961,Will
60501,41.78014,-87.82394,Summit Argo,11854,Cook
60502,41.7921,-88.25909,Aurora,22622,DuPage
60503,41.71277,-88.2565,Aurora,16973,Will
60504,41.74634,-88.23847,Aurora,38013,DuPage
60505,41.76429,-88.29409,Aurora,77190,Kane
60506,41.76524,-88.36503,Aurora,54216,Kane
60510,41.84212,-88.30552,Batavia,29533,Kane
60511,41.75795,-88.55615,Big Rock,1932,Kane
60512,41.70162,-88.43968,Bristol,1184,Kendall
60513,41.82458,-87.84692,Brookfield,18880,Cook
60514,41.79653,-87.95693,Clarendon Hills,10109,DuPage
60515,41.80961,-88.02289,Downers Grove,28566,DuPage
60516,41.76242,-88.01359,Downers Grove,29268,DuPage
60517,41.74204,-88.04237,Woodridge,32328,DuPage
60518,41.59782,-88.91874,Earlville,3543,La Salle
60519,41.77789,-88.24233,Eola,63,DuPage
60520,41.78252,-88.65816,Hinckley,2810,DeKalb
60521,41.79999,-87.92878,Hinsdale,18402,DuPage
60523,41.83706,-87.95405,Oak Brook,10136,DuPage
60525,41.78424,-87.86893,La Grange,30576,Cook
60526,41.83183,-87.87395,La Grange Park,13546,Cook
60527,41.74464,-87.93334,Willowbrook,27903,DuPage
60530,41.79491,-88.96062,Lee,484,Lee
60531,41.6157,-88.78692,Leland,1759,La Salle
60532,41.79241,-88.08441,Lisle,28178,DuPage
60534,41.81338,-87.82214,Lyons,10544,Cook
60536,41.59721,-88.54992,Millbrook,116,Kendall
60537,41.56212,-88.60245,Millington,647,La Salle
60538,41.72218,-88.35905,Montgomery,28451,Kendall
60539,41.82567,-88.33459,Mooseheart,273,Kane
60540,41.76365,-88.14514,Naperville,45112,DuPage
60541,41.51663,-88.52544,Newark,3660,Kendall
60542,41.80928,-88.35064,North Aurora,18125,Kane
60543,41.66526,-88.32321,Oswego,40027,Kendall
60544,41.61338,-88.21667,Plainfield,26498,Will
60545,41.67748,-88.53667,Plano,13259,Kendall
60546,41.83803,-87.82144,Riverside,15685,Cook
60548,41.64812,-88.63618,Sandwich,12374,DeKalb
60549,41.49085,-88.7424,Serena,232,La Salle
60550,41.77879,-88.87593,Shabbona,1454,DeKalb
60551,41.52538,-88.68472,Sheridan,5500,La Salle
60552,41.6599,-88.70302,Somonauk,4401,La Salle
60553,41.82789,-89.02682,Steward,701,Lee
60554,41.776,-88.45653,Sugar Grove,12166,Kane
60555,41.82275,-88.18134,Warrenville,13448,DuPage
60556,41.76265,-88.77347,Waterman,2029,DeKalb
60557,41.44553,-88.76381,Wedron,157,La Salle
60558,41.80612,-87.90159,Western Springs,13227,Cook
60559,41.79401,-87.97484,Westmont,24529,DuPage
60560,41.60799,-88.42971,Yorkville,24886,Kendall
60561,41.7454,-87.98237,Darien,23163,DuPage
60563,41.7997,-88.17019,Naperville,37409,DuPage
60564,41.70821,-88.19855,Naperville,42513,Will
60565,41.73006,-88.12392,Naperville,40773,DuPage
60585,41.65936,-88.22417,Plainfield,24368,Will
60586,41.57046,-88.23341,Plainfield,47692,Will
60601,41.88526,-87.62194,Chicago,14675,Cook
60602,41.88309,-87.62912,Chicago,1244,Cook
60603,41.88022,-87.62549,Chicago,1174,Cook
60604,41.87814,-87.62837,Chicago,782,Cook
60605,41.86684,-87.61983,Chicago,27519,Cook
60606,41.88195,-87.63731,Chicago,3101,Cook
60607,41.875,-87.65157,Chicago,29591,Cook
60608,41.84876,-87.6713,Chicago,79205,Cook
60609,41.81252,-87.65565,Chicago,61495,Cook
60610,41.90487,-87.63615,Chicago,39019,Cook
60611,41.89472,-87.61938,Chicago,32426,Cook
60612,41.88033,-87.68767,Chicago,34311,Cook
60613,41.95583,-87.65796,Chicago,50113,Cook
60614,41.9228,-87.65139,Chicago,71308,Cook
60615,41.80223,-87.60272,Chicago,41563,Cook
60616,41.84522,-87.62721,Chicago,54464,Cook
60617,41.71591,-87.55431,Chicago,82534,Cook
60618,41.94696,-87.70262,Chicago,94395,Cook
60619,41.74373,-87.60549,Chicago,61258,Cook
60620,41.7408,-87.6525,Chicago,68096,Cook
60621,41.77638,-87.63944,Chicago,29042,Cook
60622,41.90274,-87.68331,Chicago,52793,Cook
60623,41.84808,-87.71778,Chicago,85979,Cook
60624,41.88056,-87.72335,Chicago,36158,Cook
60625,41.97335,-87.70014,Chicago,79243,Cook
60626,42.00903,-87.66963,Chicago,49730,Cook
60628,41.69182,-87.61797,Chicago,66724,Cook
60629,41.77567,-87.71176,Chicago,111850,Cook
60630,41.97215,-87.75706,Chicago,57344,Cook
60631,41.99475,-87.81316,Chicago,29529,Cook
60632,41.81133,-87.71335,Chicago,91039,Cook
60633,41.66435,-87.56136,Chicago,12871,Cook
60634,41.94635,-87.8061,Chicago,75995,Cook
60636,41.77576,-87.66912,Chicago,32203,Cook
60637,41.78143,-87.60318,Chicago,47454,Cook
60638,41.78145,-87.77056,Chicago,58797,Cook
60639,41.92056,-87.75603,Chicago,90517,Cook
60640,41.97236,-87.66347,Chicago,69715,Cook
60641,41.94659,-87.74676,Chicago,71023,Cook
60642,41.90161,-87.65803,Chicago,20201,Cook
60643,41.69957,-87.66277,Chicago,49870,Cook
60644,41.88021,-87.75746,Chicago,47712,Cook
60645,42.00853,-87.69481,Chicago,47732,Cook
60646,41.99304,-87.75962,Chicago,27987,Cook
60647,41.92068,-87.70167,Chicago,87509,Cook
60649,41.76303,-87.57031,Chicago,46024,Cook
60651,41.90206,-87.74095,Chicago,63218,Cook
60652,41.74795,-87.71479,Chicago,43907,Cook
60653,41.81925,-87.61008,Chicago,31972,Cook
60654,41.89227,-87.63729,Chicago,19135,Cook
60655,41.69476,-87.70379,Chicago,28804,Cook
60656,41.97424,-87.82692,Chicago,27579,Cook
60657,41.93998,-87.65374,Chicago,70052,Cook
60659,41.99108,-87.70416,Chicago,41068,Cook
60660,41.9911,-87.66604,Chicago,43242,Cook
60661,41.88307,-87.64401,Chicago,9926,Cook
60706,41.96425,-87.81624,Harwood Heights,23301,Cook
60707,41.92181,-87.80724,Elmwood Park,43019,Cook
60712,42.00545,-87.7333,Lincolnwood,12539,Cook
60714,42.02805,-87.81098,Niles,29743,Cook
60803,41.6721,-87.73568,Alsip,22390,Cook
60804,41.83783,-87.76014,Cicero,83147,Cook
60805,41.722,-87.70244,Evergreen Park,19666,Cook
60827,41.64956,-87.63016,Riverdale,28577,Cook
60901,41.11084,-87.89814,Kankakee,35509,Kankakee
60910,41.07877,-87.80859,Aroma Park,671,Kankakee
60911,40.87804,-87.98023,Ashkum,1308,Iroquois
60912,40.97003,-87.59935,Beaverville,521,Iroquois
60913,41.14701,-88.06177,Bonfield,1409,Kankakee
60914,41.18671,-87.86195,Bourbonnais,29969,Kankakee
60915,41.14681,-87.86108,Bradley,10121,Kankakee
60917,41.04413,-88.18728,Buckingham,529,Kankakee
60918,40.5962,-88.03048,Buckley,777,Iroquois
60919,40.98745,-88.23833,Cabery,481,Ford
60920,41.02926,-88.30496,Campus,199,Livingston
60921,40.73772,-88.28785,Chatsworth,1517,Livingston
60922,41.00414,-87.91867,Chebanse,2389,Kankakee
60924,40.55778,-87.88532,Cissna Park,1485,Iroquois
60926,40.57234,-87.80962,Claytonville,35,Iroquois
60927,40.9393,-87.968,Clifton,2106,Iroquois
60928,40.74165,-87.84902,Crescent City,775,Iroquois
60929,40.87498,-88.28917,Cullom,803,Livingston
60930,40.82989,-88.00256,Danforth,925,Iroquois
60931,40.89038,-87.58523,Donovan,537,Iroquois
60932,40.46333,-87.80563,East Lynn,92,Vermilion
60933,40.4647,-88.27192,Elliott,312,Ford
60934,40.96171,-88.3512,Emington,259,Livingston
60935,41.17296,-88.17609,Essex,1210,Kankakee
60936,40.46679,-88.35707,Gibson City,4103,Ford
60938,40.77328,-87.98865,Gilman,1959,Iroquois
60940,41.2506,-87.64282,Grant Park,3433,Kankakee
60941,41.04201,-88.0821,Herscher,2180,Kankakee
60942,40.46563,-87.66092,Hoopeston,5871,Vermilion
60945,40.82805,-87.58414,Iroquois,175,Iroquois
60946,40.91651,-88.20291,Kempton,445,Ford
60948,40.52548,-88.08197,Loda,1496,Iroquois
60949,40.38217,-88.10288,Ludlow,535,Champaign
60950,41.25119,-87.88445,Manteno,11803,Kankakee
60951,40.92137,-87.75109,Martinton,825,Iroquois
60952,40.56446,-88.25279,Melvin,686,Ford
60953,40.62991,-87.68811,Milford,2449,Iroquois
60954,41.15338,-87.62902,Momence,5846,Kankakee
60955,40.69739,-87.97655,Onarga,1614,Iroquois
60957,40.44296,-88.13625,Paxton,5288,Ford
60958,41.06492,-87.59135,Pembroke Township,1784,Kankakee
60959,40.7897,-88.18201,Piper City,1060,Ford
60960,40.43873,-87.88999,Rankin,1092,Vermilion
60961,41.10651,-88.23084,Reddick,725,Kankakee
60962,40.62283,-88.18445,Roberts,645,Ford
60963,40.36667,-87.6485,Rossville,1895,Vermilion
60964,41.0355,-87.73825,Saint Anne,5070,Kankakee
60966,40.75153,-87.58316,Sheldon,1626,Iroquois
60968,40.67241,-88.12066,Thawville,335,Iroquois
60969,41.11102,-88.14976,Union Hill,58,Kankakee
60970,40.79334,-87.73841,Watseka,6948,Iroquois
60973,40.54174,-87.66313,Wellington,411,Iroquois
60974,40.71892,-87.734,Woodland,294,Iroquois
61001,42.46094,-90.12455,Apple River,1042,Jo Daviess
61006,41.86055,-89.2095,Ashton,1905,Lee
61007,42.19772,-89.58953,Baileyville,507,Ogle
61008,42.24513,-88.8407,Belvidere,34292,Boone
61010,42.13571,-89.26789,Byron,7805,Ogle
61011,42.38959,-88.91288,Caledonia,2326,Boone
61012,42.40745,-88.75447,Capron,2432,Boone
61013,42.37449,-89.63715,Cedarville,504,Stephenson
61014,41.97472,-89.8845,Chadwick,1289,Carroll
61015,41.99298,-89.20197,Chana,1107,Ogle
61016,42.19809,-88.94722,Cherry Valley,4962,Winnebago
61018,42.41525,-89.55523,Dakota,1002,Stephenson
61019,42.44146,-89.41007,Davis,3244,Stephenson
61020,42.1102,-89.09822,Davis Junction,3131,Ogle
61021,41.82967,-89.47908,Dixon,23031,Lee
61024,42.43652,-89.29054,Durand,2534,Winnebago
61025,42.47125,-90.56021,East Dubuque,4645,Jo Daviess
61027,42.33104,-89.75748,Eleroy,77,Stephenson
61028,42.29175,-90.16947,Elizabeth,2051,Jo Daviess
61030,42.11513,-89.58891,Forreston,2302,Ogle
61031,41.83081,-89.31307,Franklin Grove,1541,Lee
61032,42.31635,-89.63525,Freeport,29896,Stephenson
61036,42.4152,-90.39115,Galena,6620,Jo Daviess
61037,41.78938,-89.76032,Galt,55,Whiteside
61038,42.26346,-88.73574,Garden Prairie,1149,Boone
61039,42.20887,-89.46757,German Valley,1012,Stephenson
61041,42.27611,-90.30158,Hanover,959,Jo Daviess
61042,41.68764,-89.56374,Harmon,605,Lee
61043,42.05644,-89.10523,Holcomb,76,Ogle
61044,42.31877,-89.91503,Kent,277,Stephenson
61046,42.10435,-89.81366,Lanark,2451,Carroll
61047,42.15314,-89.39588,Leaf River,1839,Ogle
61048,42.38352,-89.83554,Lena,3876,Stephenson
61049,42.04419,-89.00756,Lindenwood,560,Ogle
61050,42.44031,-89.73417,Mc Connell,445,Stephenson
61051,41.98279,-89.75494,Milledgeville,1688,Carroll
61052,42.11139,-88.99956,Monroe Center,821,Ogle
61053,42.11431,-89.98216,Mount Carroll,2612,Carroll
61054,42.05493,-89.44951,Mount Morris,3674,Ogle
61057,41.82927,-89.38209,Nachusa,111,Lee
61059,42.45315,-89.94015,Nora,212,Jo Daviess
61060,42.47813,-89.62192,Orangeville,1425,Stephenson
61061,42.00025,-89.33982,Oregon,6382,Ogle
61062,42.25279,-89.84133,Pearl City,1803,Stephenson
61063,42.31215,-89.34733,Pecatonica,4260,Winnebago
61064,41.98783,-89.58238,Polo,3640,Ogle
61065,42.40752,-88.82753,Poplar Grove,10360,Boone
61067,42.30445,-89.47745,Ridott,752,Stephenson
61068,41.94846,-89.06437,Rochelle,14289,Ogle
61070,42.41685,-89.47312,Rock City,1503,Stephenson
61071,41.72702,-89.70447,Rock Falls,13997,Whiteside
61072,42.44689,-89.1411,Rockton,11565,Winnebago
61073,42.42472,-88.99358,Roscoe,19165,Winnebago
61074,42.12556,-90.12983,Savanna,4188,Carroll
61075,42.46444,-90.25896,Scales Mound,992,Jo Daviess
61077,42.23815,-89.35781,Seward,36,Winnebago
61078,42.16596,-89.72906,Shannon,1253,Carroll
61079,42.43927,-89.20763,Shirland,170,Winnebago
61080,42.47972,-88.98721,South Beloit,10440,Winnebago
61081,41.84394,-89.73537,Sterling,21129,Whiteside
61084,42.11845,-89.18869,Stillman Valley,3085,Ogle
61085,42.34186,-90.03219,Stockton,3629,Jo Daviess
61087,42.4802,-89.99263,Warren,1493,Jo Daviess
61088,42.26887,-89.25569,Winnebago,6052,Winnebago
61089,42.47336,-89.81935,Winslow,728,Stephenson
61091,41.90686,-89.52753,Woosung,45,Ogle
61101,42.33749,-89.1485,Rockford,19546,Winnebago
61102,42.22959,-89.15734,Rockford,17760,Winnebago
61103,42.34625,-89.08225,Rockford,23964,Winnebago
61104,42.25191,-89.07895,Rockford,19454,Winnebago
61107,42.28364,-89.00326,Rockford,30905,Winnebago
61108,42.25484,-89.00392,Rockford,27819,Winnebago
61109,42.19261,-89.05347,Rockford,27224,Winnebago
61111,42.33538,-89.0037,Loves Park,23837,Winnebago
61112,42.24192,-88.97518,Rockford,66,Winnebago
61114,42.30841,-88.99096,Rockford,15591,Winnebago
61115,42.36385,-89.02865,Machesney Park,22574,Winnebago
61201,41.4778,-90.57675,Rock Island,38385,Rock Island
61230,41.73914,-90.21405,Albany,1121,Whiteside
61231,41.20973,-90.72473,Aledo,5213,Mercer
61232,41.43073,-90.73249,Andalusia,1229,Rock Island
61234,41.42078,-89.91831,Annawan,1267,Henry
61235,41.39966,-90.02349,Atkinson,1519,Henry
61236,41.51381,-90.36074,Barstow,123,Rock Island
61238,41.28774,-90.17386,Cambridge,3534,Henry
61239,41.48602,-90.38758,Carbon Cliff,1239,Rock Island
61240,41.42551,-90.42974,Coal Valley,6138,Rock Island
61241,41.4885,-90.32095,Colona,6827,Henry
61242,41.70363,-90.27858,Cordova,1208,Rock Island
61243,41.61876,-89.68295,Deer Grove,248,Whiteside
61244,41.52336,-90.39469,East Moline,23679,Rock Island
61250,41.65893,-90.10305,Erie,2502,Whiteside
61251,41.7306,-90.07578,Fenton,337,Whiteside
61252,41.84323,-90.11799,Fulton,5341,Whiteside
61254,41.4686,-90.15092,Geneseo,11004,Henry
61256,41.55916,-90.4015,Hampton,1962,Rock Island
61257,41.59056,-90.22272,Hillsdale,1198,Rock Island
61258,41.52185,-89.91396,Hooppole,236,Henry
61259,41.38819,-90.93155,Illinois City,1283,Rock Island
61260,41.24626,-90.88299,Joy,1062,Mercer
61261,41.72562,-89.91592,Lyndon,934,Whiteside
61262,41.2805,-90.35675,Lynn Center,1123,Henry
61263,41.25884,-90.60477,Matherville,743,Mercer
61264,41.3968,-90.59173,Milan,10621,Rock Island
61265,41.482,-90.49016,Moline,43706,Rock Island
61270,41.82973,-89.96639,Morrison,7007,Whiteside
61272,41.24656,-91.00568,New Boston,1198,Mercer
61273,41.36288,-90.39892,Orion,3243,Henry
61274,41.36857,-90.27707,Osco,201,Henry
61275,41.59984,-90.29836,Port Byron,4750,Rock Island
61276,41.30407,-90.58989,Preemption,110,Mercer
61277,41.6067,-89.93166,Prophetstown,3245,Whiteside
61278,41.58206,-90.33672,Rapids City,479,Rock Island
61279,41.32054,-90.72683,Reynolds,870,Rock Island
61281,41.29689,-90.51976,Sherrard,2394,Mercer
61282,41.49557,-90.41302,Silvis,7820,Rock Island
61283,41.59188,-89.78657,Tampico,1742,Whiteside
61284,41.39364,-90.74672,Taylor Ridge,2110,Rock Island
61285,41.97814,-90.05951,Thomson,1627,Carroll
61301,41.39484,-89.08042,La Salle,10088,La Salle
61310,41.70001,-89.34996,Amboy,3748,Lee
61311,41.0378,-88.86002,Ancona,204,Livingston
61312,41.43573,-89.23293,Arlington,511,Bureau
61313,41.07367,-88.66871,Blackstone,209,Livingston
61314,41.29609,-89.67417,Buda,885,Bureau
61315,41.28772,-89.3642,Bureau,213,Bureau
61316,41.25908,-89.12499,Cedar Point,299,La Salle
61317,41.43146,-89.2089,Cherry,479,Bureau
61318,41.71213,-89.07967,Compton,845,Lee
61319,41.01845,-88.74352,Cornell,1434,Livingston
61320,41.35468,-89.17047,Dalzell,724,Bureau
61321,40.9692,-88.97316,Dana,248,La Salle
61322,41.31912,-89.30745,Depue,1454,Bureau
61323,41.43304,-89.39674,Dover,91,Bureau
61324,41.76991,-89.41389,Eldena,92,Lee
61325,41.23694,-88.8064,Grand Ridge,970,La Salle
61326,41.25385,-89.22434,Granville,2297,Putnam
61327,41.22683,-89.30943,Hennepin,1326,Putnam
61328,41.49955,-89.45929,Kasbeer,25,Bureau
61329,41.3804,-89.19744,Ladd,1185,Bureau
61330,41.53794,-89.27481,La Moille,1437,Bureau
61331,41.74745,-89.2768,Lee Center,18,Lee
61332,41.18877,-88.98879,Leonore,77,La Salle
61333,40.98935,-88.8881,Long Point,323,Livingston
61334,41.14511,-89.09845,Lostant,732,La Salle
61335,41.1635,-89.22473,Mc Nabb,441,Putnam
61336,41.10705,-89.22002,Magnolia,569,Putnam
61337,41.43639,-89.3284,Malden,393,Bureau
61338,41.45877,-89.67613,Manlius,257,Bureau
61340,41.2612,-89.2501,Mark,245,Putnam
61341,41.34073,-88.69246,Marseilles,7999,La Salle
61342,41.54058,-89.09057,Mendota,8763,La Salle
61344,41.4116,-89.83159,Mineral,376,Bureau
61345,41.28003,-89.78988,Neponset,835,Bureau
61346,41.51119,-89.71838,New Bedford,67,Bureau
61348,41.28164,-89.03787,Oglesby,4483,La Salle
61349,41.55047,-89.44504,Ohio,863,Bureau
61350,41.37256,-88.86337,Ottawa,23835,La Salle
61353,41.69654,-88.99507,Paw Paw,1201,Lee
61354,41.32788,-89.14278,Peru,10589,La Salle
61356,41.39353,-89.43823,Princeton,10680,Bureau
61358,40.97874,-89.04399,Rutland,312,La Salle
61359,41.36207,-89.27127,Seatonville,338,Bureau
61360,41.32721,-88.60478,Seneca,3678,La Salle
61361,41.41145,-89.7638,Sheffield,1117,Bureau
61362,41.35474,-89.22909,Spring Valley,5585,Bureau
61363,41.25421,-89.18248,Standard,266,Putnam
61364,41.12841,-88.84214,Streator,19054,La Salle
61367,41.62678,-89.2654,Sublette,739,Lee
61368,41.26305,-89.52295,Tiskilwa,1428,Bureau
61369,40.98409,-89.15506,Toluca,1656,Marshall
61370,41.20504,-89.03162,Tonica,1393,La Salle
61372,41.46491,-89.07802,Troy Grove,161,La Salle
61373,41.39897,-88.9984,Utica,2134,La Salle
61374,41.54773,-89.35871,Van Orin,118,Bureau
61375,41.03528,-89.25044,Varna,1157,Marshall
61376,41.53936,-89.60917,Walnut,2118,Bureau
61377,41.06002,-89.03652,Wenona,1421,Marshall
61378,41.72444,-89.15703,West Brooklyn,333,Lee
61379,41.39199,-89.61621,Wyanet,1488,Bureau
61401,40.94467,-90.38468,Galesburg,33685,Knox
61410,40.79797,-90.39556,Abingdon,3892,Knox
61411,40.40015,-90.50515,Adair,444,McDonough
61412,41.06972,-90.57878,Alexis,1467,Warren
61413,41.19053,-90.37358,Alpha,906,Henry
61414,41.12471,-90.15576,Altona,937,Knox
61415,40.6571,-90.42913,Avon,1889,Fulton
61416,40.49933,-90.56297,Bardolph,294,McDonough
61417,40.77417,-90.53831,Berwick,286,Warren
61418,40.85029,-90.86116,Biggsville,542,Henderson
61419,41.19979,-90.11754,Bishop Hill,114,Henry
61420,40.54736,-90.86657,Blandinsville,1121,McDonough
61421,41.18016,-89.64997,Bradford,1300,Stark
61422,40.55084,-90.53475,Bushnell,3164,McDonough
61423,40.88629,-90.5012,Cameron,519,Warren
61424,41.07675,-89.63499,Camp Grove,135,Marshall
61425,40.76197,-91.03419,Carman,375,Henderson
61426,41.11998,-89.70696,Castleton,109,Stark
61427,40.50195,-90.19414,Cuba,2192,Fulton
61428,40.93478,-90.10786,Dahinda,1022,Knox
61430,40.94019,-90.31091,East Galesburg,677,Knox
61431,40.60771,-90.27817,Ellisville,296,Fulton
61432,40.65259,-90.15863,Fairview,658,Fulton
61433,40.55738,-90.16865,Fiatt,107,Fulton
61434,41.17551,-90.03897,Galva,3012,Henry
61435,40.99238,-90.56783,Gerlaw,29,Warren
61436,40.86223,-90.21682,Gilson,650,Knox
61437,40.84614,-90.98685,Gladstone,972,Henderson
61438,40.58281,-90.6516,Good Hope,917,McDonough
61439,41.02848,-90.357,Henderson,242,Knox
61440,40.30729,-90.59548,Industry,690,McDonough
61441,40.34074,-90.29337,Ipava,1001,Fulton
61442,41.10743,-90.92272,Keithsburg,708,Mercer
61443,41.25995,-89.94172,Kewanee,13663,Henry
61447,40.86722,-90.75368,Kirkwood,1025,Warren
61448,40.93363,-90.24678,Knoxville,3837,Knox
61449,41.08935,-89.9747,La Fayette,337,Stark
61450,40.57884,-90.98165,La Harpe,1787,Hancock
61451,40.94578,-89.93875,Laura,331,Peoria
61452,40.2362,-90.66065,Littleton,222,Schuyler
61453,41.0122,-90.76418,Little York,578,Warren
61454,40.68018,-91.04244,Lomax,500,Henderson
61455,40.43534,-90.65455,Macomb,20698,McDonough
61458,40.77965,-90.18146,Maquon,669,Knox
61459,40.50553,-90.41585,Marietta,385,Fulton
61460,40.71663,-90.82914,Media,322,Henderson
61462,40.92358,-90.64788,Monmouth,11521,Warren
61465,41.20786,-90.46658,New Windsor,1161,Mercer
61466,41.11004,-90.47968,North Henderson,326,Mercer
61467,41.07374,-90.23973,Oneida,1170,Knox
61468,41.25774,-90.38776,Ophiem,81,Henry
61469,40.96403,-90.90614,Oquawka,2248,Henderson
61470,40.60386,-90.50482,Prairie City,537,McDonough
61471,40.69758,-90.83529,Raritan,60,Henderson
61472,41.10217,-90.38287,Rio,517,Knox
61473,40.70595,-90.65273,Roseville,1509,Warren
61474,40.73632,-90.37825,Saint Augustine,292,Knox
61475,40.59795,-90.75343,Sciota,203,McDonough
61476,41.0981,-90.83225,Seaton,375,Mercer
61477,40.49608,-90.31546,Smithfield,573,Fulton
61478,40.75784,-90.76057,Smithshire,319,Warren
61479,41.00479,-89.64477,Speer,65,Stark
61480,40.7254,-90.92182,Stronghurst,1210,Henderson
61482,40.3884,-90.41176,Table Grove,671,Fulton
61483,41.0867,-89.87326,Toulon,2090,Stark
61484,40.29527,-90.43646,Vermont,832,Fulton
61485,41.02164,-90.09832,Victoria,447,Knox
61486,41.19792,-90.57609,Viola,1469,Mercer
61488,41.03225,-90.3183,Wataga,1040,Knox
61489,40.93398,-90.02847,Williamsfield,870,Knox
61490,41.1851,-90.26558,Woodhull,1134,Henry
61491,41.06053,-89.7294,Wyoming,1927,Stark
61501,40.22935,-90.31639,Astoria,1534,Fulton
61516,40.85811,-89.13522,Benson,676,Woodford
61517,40.82604,-89.85434,Brimfield,3274,Peoria
61519,40.46009,-90.08897,Bryant,230,Fulton
61520,40.54209,-90.02131,Canton,16806,Fulton
61523,40.91726,-89.53549,Chillicothe,11191,Peoria
61524,40.49127,-90.0347,Dunfermline,381,Fulton
61525,40.84846,-89.669,Dunlap,9188,Peoria
61526,40.92992,-89.62435,Edelstein,810,Peoria
61528,40.77897,-89.72298,Edwards,3127,Peoria
61529,40.78143,-89.94202,Elmwood,2699,Peoria
61530,40.71402,-89.26033,Eureka,7245,Woodford
61531,40.68307,-90.03505,Farmington,3335,Fulton
61532,40.33949,-89.81878,Forest City,645,Mason
61533,40.5865,-89.83932,Glasford,2509,Peoria
61534,40.41446,-89.66606,Green Valley,1806,Tazewell
61535,40.58306,-89.52341,Groveland,1697,Tazewell
61536,40.68992,-89.78697,Hanna City,2918,Peoria
61537,41.11701,-89.46636,Henry,2754,Marshall
61539,40.55517,-89.76702,Kingston Mines,206,Peoria
61540,41.01472,-89.37309,Lacon,2770,Marshall
61541,40.98038,-89.23495,La Rose,91,Marshall
61542,40.38632,-90.13464,Lewistown,3628,Fulton
61543,40.42079,-89.97069,Liverpool,152,Fulton
61544,40.69177,-90.24007,London Mills,590,Fulton
61545,40.8707,-89.35353,Lowpoint,700,Woodford
61546,40.45393,-89.79886,Manito,3767,Mason
61547,40.60634,-89.73755,Mapleton,4138,Peoria
61548,40.80917,-89.41402,Metamora,11950,Woodford
61550,40.61082,-89.44211,Morton,17787,Tazewell
61552,40.81758,-89.5657,Mossville,146,Peoria
61553,40.62594,-90.03228,Norris,140,Fulton
61554,40.54087,-89.61861,Pekin,42059,Tazewell
61559,40.92109,-89.77556,Princeville,3263,Peoria
61560,41.1877,-89.40276,Putnam,560,Putnam
61561,40.80295,-89.20088,Roanoke,2469,Woodford
61562,40.88034,-89.50146,Rome,44,Peoria
61563,40.49216,-90.0541,Saint David,519,Fulton
61564,40.49349,-89.65349,South Pekin,962,Tazewell
61565,41.03231,-89.50994,Sparland,1448,Marshall
61567,40.35803,-89.89658,Topeka,540,Mason
61568,40.50532,-89.4787,Tremont,4223,Tazewell
61569,40.6842,-89.89319,Trivoli,1184,Peoria
61570,40.92039,-89.30775,Washburn,1787,Woodford
61571,40.70343,-89.41943,Washington,24974,Tazewell
61572,40.80029,-90.03681,Yates City,1191,Knox
61602,40.67471,-89.60746,Peoria,877,Peoria
61603,40.71332,-89.57724,Peoria,16655,Peoria
61604,40.70574,-89.65364,Peoria,30582,Peoria
61605,40.67658,-89.63336,Peoria,15713,Peoria
61606,40.6998,-89.61143,Peoria,7870,Peoria
61607,40.63006,-89.68515,Peoria,10673,Peoria
61610,40.64283,-89.59883,Creve Coeur,5493,Tazewell
61611,40.71048,-89.53565,East Peoria,24877,Tazewell
61614,40.75899,-89.60496,Peoria,28012,Peoria
61615,40.77429,-89.64584,Peoria,23168,Peoria
61616,40.74677,-89.57189,Peoria Heights,5910,Peoria
61625,40.69759,-89.61274,Peoria,370,Peoria
61701,40.47675,-88.99306,Bloomington,35783,McLean
61704,40.47049,-88.94334,Bloomington,37204,McLean
61705,40.45995,-89.00225,Bloomington,12971,McLean
61720,40.55467,-88.51449,Anchor,201,McLean
61721,40.3537,-89.32324,Armington,592,Tazewell
61722,40.41904,-88.63212,Arrowsmith,478,McLean
61723,40.26082,-89.26682,Atlanta,2595,Logan
61724,40.33083,-88.52704,Bellflower,494,McLean
61725,40.60978,-89.11984,Carlock,1703,McLean
61726,40.73661,-88.69717,Chenoa,2427,McLean
61727,40.14248,-88.96085,Clinton,9826,DeWitt
61728,40.57283,-88.62634,Colfax,1311,McLean
61729,40.63068,-89.22359,Congerville,1201,Woodford
61730,40.53247,-88.72939,Cooksville,301,McLean
61731,40.61393,-88.4855,Cropsey,194,Ford
61732,40.53116,-89.20318,Danvers,2057,McLean
61733,40.6224,-89.3323,Deer Creek,831,Tazewell
61734,40.37342,-89.52646,Delavan,2765,Tazewell
61735,40.20192,-88.81807,Dewitt,454,DeWitt
61736,40.4021,-88.83864,Downs,1750,McLean
61737,40.45847,-88.73956,Ellsworth,476,McLean
61738,40.74605,-89.03428,El Paso,4395,Woodford
61739,40.73312,-88.52043,Fairbury,4577,Livingston
61740,40.88428,-88.86162,Flanagan,1536,Livingston
61741,40.75938,-88.40425,Forrest,1703,Livingston
61742,40.63291,-89.27268,Goodfield,1250,Woodford
61743,40.87567,-88.78168,Graymont,205,Livingston
61744,40.73995,-88.88711,Gridley,1865,Livingston
61745,40.32222,-88.97246,Heyworth,4614,McLean
61747,40.42174,-89.43073,Hopedale,1479,Tazewell
61748,40.6167,-88.99117,Hudson,2720,McLean
61749,40.09494,-89.11028,Kenney,461,DeWitt
61750,40.12357,-88.85959,Lane,154,DeWitt
61751,40.21455,-89.29926,Lawndale,83,Logan
61752,40.33907,-88.7548,Le Roy,4389,McLean
61753,40.63644,-88.78468,Lexington,3058,McLean
61754,40.3303,-89.16912,Mc Lean,1063,McLean
61755,40.52791,-89.33599,Mackinaw,4738,Tazewell
61756,40.03121,-88.97344,Maroa,2413,Macon
61759,40.43718,-89.3237,Minier,1529,Tazewell
61760,40.88108,-89.02871,Minonk,2519,Woodford
61761,40.52955,-88.95859,Normal,55222,McLean
61764,40.88228,-88.62818,Pontiac,14026,Livingston
61769,40.88204,-88.39935,Saunemin,621,Livingston
61770,40.4432,-88.52593,Saybrook,1138,McLean
61771,40.70926,-89.14122,Secor,743,Woodford
61772,40.38125,-89.06594,Shirley,238,McLean
61773,40.57176,-88.38322,Sibley,413,Ford
61774,40.43066,-89.20395,Stanford,1120,McLean
61775,40.65082,-88.36712,Strawn,327,Livingston
61776,40.56941,-88.86699,Towanda,1348,McLean
61777,40.24249,-88.94187,Wapella,728,DeWitt
61778,40.2329,-89.09114,Waynesville,691,DeWitt
61801,40.10897,-88.2113,Urbana,31157,Champaign
61802,40.12556,-88.15101,Urbana,19349,Champaign
61810,39.91615,-87.91471,Allerton,346,Vermilion
61811,40.29272,-87.62282,Alvin,678,Vermilion
61812,40.25012,-87.8867,Armstrong,381,Vermilion
61813,39.91159,-88.55958,Bement,1656,Piatt
61814,40.2306,-87.57246,Bismarck,1074,Vermilion
61815,40.11074,-88.37679,Bondville,259,Champaign
61816,39.92283,-88.00121,Broadlands,458,Champaign
61817,40.03788,-87.71673,Catlin,2516,Vermilion
61818,39.88033,-88.71921,Cerro Gordo,1712,Piatt
61820,40.1089,-88.2435,Champaign,38156,Champaign
61821,40.10963,-88.27502,Champaign,30582,Champaign
61822,40.13577,-88.30528,Champaign,25829,Champaign
61830,40.02752,-88.72251,Cisco,337,Piatt
61831,40.22512,-87.79209,Collison,134,Vermilion
61832,40.13617,-87.63648,Danville,34918,Vermilion
61833,40.09806,-87.64433,Tilton,2199,Vermilion
61834,40.1643,-87.63785,Danville,8778,Vermilion
61839,40.1377,-88.62912,De Land,610,Piatt
61840,40.3037,-88.29894,Dewey,819,Champaign
61841,40.02634,-87.82426,Fairmount,1341,Vermilion
61842,40.23923,-88.66581,Farmer City,2727,DeWitt
61843,40.31535,-88.38396,Fisher,2368,Champaign
61844,40.13875,-87.87033,Fithian,715,Vermilion
61845,40.37417,-88.39924,Foosland,383,Champaign
61846,39.97625,-87.6124,Georgetown,4918,Vermilion
61847,40.31313,-88.01543,Gifford,1239,Champaign
61848,40.30806,-87.70278,Henning,230,Vermilion
61849,40.01115,-87.96191,Homer,1999,Champaign
61850,39.93251,-87.73769,Indianola,418,Vermilion
61851,39.96081,-88.43474,Ivesdale,295,Champaign
61852,39.90315,-88.07579,Longview,221,Champaign
61853,40.22144,-88.41679,Mahomet,13981,Champaign
61854,40.20397,-88.52404,Mansfield,1197,Piatt
61855,39.92215,-88.66092,Milmine,104,Piatt
61856,40.0269,-88.57954,Monticello,7884,Piatt
61857,40.1167,-87.84216,Muncie,195,Vermilion
61858,40.13282,-87.768,Oakwood,3017,Vermilion
61859,40.15415,-87.96115,Ogden,1226,Champaign
61862,40.30632,-87.95188,Penfield,533,Champaign
61863,39.9058,-88.2797,Pesotum,806,Champaign
61864,39.97954,-88.14671,Philo,1719,Champaign
61865,40.30451,-87.80254,Potomac,1560,Vermilion
61866,40.31208,-88.15398,Rantoul,14296,Champaign
61870,39.89754,-87.61837,Ridge Farm,1320,Vermilion
61871,40.19008,-87.96779,Royal,304,Champaign
61872,39.9387,-88.37719,Sadorus,898,Champaign
61873,40.1378,-88.03922,Saint Joseph,6519,Champaign
61874,40.05111,-88.25694,Savoy,8150,Champaign
61875,40.1005,-88.41951,Seymour,818,Champaign
61876,39.90508,-87.83412,Sidell,561,Vermilion
61877,39.99416,-88.07866,Sidney,1803,Champaign
61878,40.23971,-88.14944,Thomasboro,1310,Champaign
61880,39.97357,-88.2458,Tolono,3831,Champaign
61882,40.11345,-88.75998,Weldon,694,DeWitt
61883,40.03743,-87.64153,Westville,4284,Vermilion
61884,40.09074,-88.48059,White Heath,1124,Piatt
61910,39.67439,-88.29901,Arcola,4225,Douglas
61911,39.70325,-88.46979,Arthur,5071,Douglas
61912,39.52727,-88.03502,Ashmore,1227,Coles
61913,39.82757,-88.4661,Atwood,1463,Douglas
61914,39.63542,-88.76476,Bethany,1833,Moultrie
61917,39.7142,-87.89771,Brocton,771,Edgar
61919,39.77867,-88.13947,Camargo,942,Douglas
61920,39.50369,-88.16408,Charleston,24001,Coles
61924,39.79136,-87.65447,Chrisman,2258,Edgar
61925,39.7235,-88.83625,Dalton City,670,Moultrie
61928,39.451,-88.5041,Gays,665,Moultrie
61929,39.82479,-88.62133,Hammond,683,Piatt
61930,39.68087,-88.13049,Hindsboro,745,Douglas
61931,39.58979,-88.35311,Humboldt,1080,Coles
61932,39.80357,-87.87908,Hume,439,Edgar
61933,39.54835,-87.91704,Kansas,901,Edgar
61936,39.80135,-88.73026,La Place,290,Piatt
61937,39.7418,-88.65056,Lovington,2132,Moultrie
61938,39.48385,-88.37427,Mattoon,21840,Coles
61940,39.80769,-87.81851,Metcalf,238,Edgar
61941,39.80403,-88.07291,Murdock,79,Douglas
61942,39.81517,-88.00608,Newman,1045,Douglas
61943,39.66501,-88.02965,Oakland,1660,Douglas
61944,39.601,-87.7013,Paris,12259,Edgar
61949,39.6336,-87.87359,Redmon,145,Edgar
61951,39.59393,-88.58679,Sullivan,7956,Moultrie
61953,39.79958,-88.29125,Tuscola,6067,Douglas
61955,39.58217,-87.59167,Vermilion,189,Edgar
61956,39.85124,-88.14415,Villa Grove,2709,Douglas
61957,39.4396,-88.61111,Windsor,1912,Shelby
62001,38.87851,-89.74853,Alhambra,1796,Madison
62002,38.93974,-90.1276,Alton,31059,Madison
62006,39.05586,-90.66658,Batchtown,490,Calhoun
62009,39.09111,-89.79838,Benld,1814,Macoupin
62010,38.92008,-90.0474,Bethalto,11357,Madison
62011,39.1266,-89.21604,Bingham,172,Fayette
62012,39.04289,-90.15007,Brighton,6426,Macoupin
62013,38.96245,-90.56954,Brussels,693,Calhoun
62014,39.04302,-89.951,Bunker Hill,4131,Macoupin
62015,39.22171,-89.54339,Butler,635,Montgomery
62016,39.29411,-90.41699,Carrollton,3674,Greene
62017,39.06889,-89.36897,Coffeen,897,Montgomery
62018,38.90713,-90.08356,Cottage Hills,3034,Madison
62019,39.01942,-89.44928,Donnellson,393,Montgomery
62021,38.97733,-89.97924,Dorsey,920,Madison
62022,39.00378,-90.33165,Dow,1060,Jersey
62023,39.11073,-89.78813,Eagarville,117,Macoupin
62024,38.87135,-90.09565,East Alton,9916,Madison
62025,38.83058,-89.93325,Edwardsville,34313,Madison
62027,39.25607,-90.55969,Eldred,494,Greene
62028,38.95937,-90.35409,Elsah,1279,Jersey
62030,39.15462,-90.16424,Fidelity,149,Jersey
62031,39.11334,-90.5357,Fieldon,749,Jersey
62032,39.11562,-89.28852,Fillmore,732,Montgomery
62033,39.13406,-89.8442,Gillespie,4515,Macoupin
62034,38.75648,-89.9699,Glen Carbon,13667,Madison
62035,38.9643,-90.24063,Godfrey,16520,Madison
62036,38.91663,-90.58797,Golden Eagle,803,Calhoun
62037,39.00931,-90.4676,Grafton,2205,Jersey
62040,38.72613,-90.11068,Granite City,42447,Madison
62044,39.36359,-90.2127,Greenfield,2094,Greene
62045,39.26029,-90.70905,Hamburg,429,Calhoun
62046,38.89009,-89.84575,Hamel,769,Madison
62047,39.12105,-90.62535,Hardin,1443,Calhoun
62048,38.80405,-90.09663,Hartford,1829,Madison
62049,39.13013,-89.48517,Hillsboro,8946,Montgomery
62050,39.44463,-90.55128,Hillview,354,Greene
62051,39.20174,-89.40192,Irving,585,Montgomery
62052,39.11104,-90.32186,Jerseyville,12292,Jersey
62053,39.32524,-90.66108,Kampsville,626,Calhoun
62054,39.20125,-90.34509,Kane,781,Greene
62056,39.17874,-89.671,Litchfield,8574,Montgomery
62058,38.96894,-89.76688,Livingston,757,Madison
62059,38.65652,-90.16503,Lovejoy,452,Saint Clair
62060,38.67688,-90.14691,Madison,4586,Madison
62061,38.78974,-89.77953,Marine,1671,Madison
62062,38.7274,-89.96199,Maryville,8008,Madison
62063,39.19785,-90.14764,Medora,1082,Macoupin
62065,39.23213,-90.62892,Michael,179,Calhoun
62067,38.92988,-89.98518,Moro,2755,Madison
62069,39.08833,-89.73938,Mount Olive,3088,Macoupin
62070,39.29651,-90.73317,Mozier,48,Calhoun
62074,38.95803,-89.68364,New Douglas,1333,Macoupin
62075,39.30114,-89.29536,Nokomis,3662,Montgomery
62076,39.34345,-89.21919,Ohlman,112,Montgomery
62077,39.02901,-89.52171,Panama,240,Montgomery
62078,39.47862,-90.48608,Patterson,78,Greene
62079,39.11224,-90.14199,Piasa,244,Macoupin
62080,39.13694,-89.10132,Ramsey,2433,Fayette
62081,39.2612,-90.23711,Rockbridge,354,Greene
62082,39.49462,-90.32407,Roodhouse,2746,Greene
62083,39.35447,-89.20145,Rosamond,237,Christian
62084,38.83658,-90.06238,Roxana,1464,Madison
62085,39.07823,-89.80244,Sawyerville,192,Macoupin
62086,38.98249,-89.581,Sorento,1263,Bond
62087,38.81693,-90.06612,South Roxana,2172,Madison
62088,39.01199,-89.79869,Staunton,6569,Macoupin
62089,39.12974,-89.49522,Taylor Springs,501,Montgomery
62090,38.66988,-90.16927,Venice,1293,Madison
62091,39.0569,-89.60917,Walshville,380,Montgomery
62092,39.41619,-90.41611,White Hall,2932,Greene
62093,39.06688,-89.85469,Wilsonville,477,Macoupin
62094,39.24472,-89.35264,Witt,1148,Montgomery
62095,38.8623,-90.06934,Wood River,10455,Madison
62097,38.93873,-89.85434,Worden,3064,Madison
62098,39.3861,-90.30464,Wrights,24,Greene
62201,38.64273,-90.13868,East Saint Louis,7570,Saint Clair
62203,38.60021,-90.07747,East Saint Louis,8264,Saint Clair
62204,38.6327,-90.09056,East Saint Louis,7954,Saint Clair
62205,38.60935,-90.12227,East Saint Louis,8007,Saint Clair
62206,38.56793,-90.1667,East Saint Louis,15121,Saint Clair
62207,38.58284,-90.12291,East Saint Louis,8913,Saint Clair
62208,38.59625,-90.00452,Fairview Heights,16516,Saint Clair
62214,38.37808,-89.61173,Addieville,1242,Washington
62215,38.50942,-89.60739,Albers,1907,Clinton
62216,38.62106,-89.60243,Aviston,2742,Clinton
62217,38.17349,-89.84446,Baldwin,748,Randolph
62218,38.51975,-89.47294,Bartelso,1820,Clinton
62219,38.60586,-89.43186,Beckemeyer,954,Clinton
62220,38.47337,-89.98652,Belleville,18302,Saint Clair
62221,38.51484,-89.89921,Belleville,29949,Saint Clair
62223,38.53614,-90.0598,Belleville,16309,Saint Clair
62225,38.54559,-89.8554,Scott Air Force Base,5128,Saint Clair
62226,38.53518,-90.00058,Belleville,28666,Saint Clair
62230,38.64037,-89.52681,Breese,6279,Clinton
62231,38.64163,-89.33028,Carlyle,7436,Clinton
62232,38.63222,-90.00279,Caseyville,6705,Saint Clair
62233,37.94609,-89.78739,Chester,9680,Randolph
62234,38.6834,-89.98175,Collinsville,32426,Madison
62236,38.43645,-90.21655,Columbia,13757,Monroe
62237,38.18906,-89.5691,Coulterville,2435,Randolph
62238,38.03912,-89.53264,Cutler,619,Perry
62239,38.52569,-90.18737,Dupo,4715,Saint Clair
62240,38.52118,-90.20743,East Carondelet,1727,Saint Clair
62241,38.01352,-89.89064,Ellis Grove,989,Randolph
62242,38.09633,-89.94536,Evansville,1445,Randolph
62243,38.41946,-89.89048,Freeburg,5795,Saint Clair
62244,38.1864,-90.19815,Fults,897,Monroe
62245,38.54878,-89.56794,Germantown,1692,Clinton
62246,38.8888,-89.42627,Greenville,9916,Bond
62248,38.30445,-89.99345,Hecker,391,Monroe
62249,38.75524,-89.66456,Highland,15507,Madison
62250,38.54084,-89.266,Hoffman,461,Clinton
62253,38.77688,-89.29754,Keyesport,583,Bond
62254,38.60743,-89.82136,Lebanon,6292,Saint Clair
62255,38.31167,-89.78192,Lenzburg,1279,Saint Clair
62257,38.28412,-89.73133,Marissa,2678,Saint Clair
62258,38.46213,-89.77254,Mascoutah,9253,Saint Clair
62260,38.45996,-90.10096,Millstadt,7405,Saint Clair
62261,38.01309,-90.00282,Modoc,64,Randolph
62262,38.94143,-89.27192,Mulberry Grove,1503,Bond
62263,38.33016,-89.40006,Nashville,5034,Washington
62264,38.31628,-89.90722,New Athens,3745,Saint Clair
62265,38.50063,-89.67063,New Baden,4391,Clinton
62266,38.48667,-89.67709,New Memphis,87,Clinton
62268,38.27365,-89.528,Oakdale,712,Washington
62269,38.60337,-89.91603,O Fallon,32029,Saint Clair
62271,38.44475,-89.51576,Okawville,2153,Washington
62272,37.98836,-89.59938,Percy,1741,Randolph
62273,38.78677,-89.58388,Pierron,294,Bond
62274,38.09184,-89.40828,Pinckneyville,7857,Perry
62275,38.81167,-89.54473,Pocahontas,3705,Bond
62277,38.10088,-90.11549,Prairie Du Rocher,1363,Randolph
62278,38.20794,-89.99259,Red Bud,6543,Randolph
62279,38.15121,-90.13541,Renault,7,Monroe
62280,37.83504,-89.65967,Rockwood,445,Randolph
62281,38.70439,-89.78191,Saint Jacob,2712,Madison
62282,38.36313,-89.71267,Saint Libory,406,Saint Clair
62284,38.87655,-89.31304,Smithboro,549,Bond
62285,38.38835,-90.00774,Smithton,4436,Saint Clair
62286,38.11832,-89.7144,Sparta,6110,Randolph
62288,37.98825,-89.68559,Steeleville,3094,Randolph
62289,38.59693,-89.75162,Summerfield,351,Saint Clair
62292,38.21265,-89.6801,Tilden,885,Randolph
62293,38.61896,-89.6975,Trenton,4427,Saint Clair
62294,38.70282,-89.87119,Troy,14117,Madison
62295,38.27929,-90.31335,Valmeyer,1547,Monroe
62297,38.04982,-89.81312,Walsh,251,Randolph
62298,38.31087,-90.15224,Waterloo,16608,Monroe
62301,39.93159,-91.3866,Quincy,32078,Adams
62305,39.92981,-91.34582,Quincy,19357,Adams
62311,40.22201,-90.91783,Augusta,633,Schuyler
62312,39.70914,-91.02783,Barry,1933,Pike
62313,40.31956,-91.22604,Basco,378,Hancock
62314,39.77066,-90.89028,Baylis,524,Pike
62316,40.23633,-91.055,Bowen,545,Hancock
62319,40.15246,-90.73123,Camden,261,Schuyler
62320,40.02071,-91.0804,Camp Point,2324,Adams
62321,40.4085,-91.10393,Carthage,3845,Hancock
62323,39.8124,-90.68541,Chambersburg,268,Pike
62324,39.99243,-90.95899,Clayton,1076,Adams
62325,40.05123,-91.16604,Coatsburg,466,Adams
62326,40.41725,-90.81335,Colchester,2337,McDonough
62330,40.57204,-91.12555,Dallas City,1746,Hancock
62334,40.3879,-91.24059,Elvaston,138,Hancock
62336,40.46788,-91.17161,Ferris,18,Hancock
62338,39.9914,-91.23958,Fowler,1316,Adams
62339,40.13164,-91.04115,Golden,874,Adams
62340,39.72897,-90.72485,Griggsville,1894,Pike
62341,40.42577,-91.30279,Hamilton,3454,Hancock
62343,39.70301,-91.24229,Hull,948,Pike
62344,40.16893,-90.83111,Huntsville,14,Schuyler
62345,39.70493,-91.12951,Kinderhook,391,Pike
62346,40.14813,-90.9475,La Prairie,189,Adams
62347,39.86596,-91.08899,Liberty,1956,Adams
62348,40.1876,-91.36729,Lima,166,Adams
62349,40.1675,-91.20078,Loraine,626,Adams
62351,40.11573,-91.26757,Mendon,1879,Adams
62352,39.56453,-90.6501,Milton,232,Pike
62353,39.97252,-90.75829,Mount Sterling,5346,Brown
62354,40.52601,-91.3318,Nauvoo,1592,Hancock
62355,39.41023,-90.7765,Nebo,754,Pike
62356,39.60144,-91.0858,New Canton,465,Pike
62357,39.68491,-90.86737,New Salem,475,Pike
62358,40.58206,-91.25719,Niota,884,Hancock
62359,40.03269,-91.20472,Paloma,209,Adams
62360,39.81627,-91.26344,Payson,1918,Adams
62361,39.48317,-90.64632,Pearl,522,Pike
62362,39.78238,-90.74712,Perry,297,Pike
62363,39.5936,-90.77418,Pittsfield,5758,Pike
62365,39.7964,-91.1594,Plainville,620,Adams
62366,39.46001,-90.89432,Pleasant Hill,1589,Pike
62367,40.30522,-90.87611,Plymouth,1033,Hancock
62370,39.52087,-91.00198,Rockport,234,Pike
62373,40.24217,-91.34172,Sutter,294,Hancock
62374,40.40891,-90.91203,Tennessee,345,McDonough
62375,40.00411,-90.87126,Timewell,345,Brown
62376,40.11503,-91.42052,Ursa,1204,Adams
62378,39.89739,-90.63512,Versailles,955,Brown
62379,40.28677,-91.40011,Warsaw,1725,Hancock
62380,40.24002,-91.19088,West Point,488,Hancock
62401,39.11953,-88.56417,Effingham,18722,Effingham
62410,38.53253,-87.72653,Allendale,1249,Wabash
62411,39.07063,-88.72964,Altamont,4136,Effingham
62413,39.13963,-87.83882,Annapolis,330,Crawford
62414,39.17067,-88.83046,Beecher City,1993,Fayette
62417,38.70667,-87.76565,Bridgeport,3281,Lawrence
62418,39.01845,-88.96952,Brownstown,2108,Fayette
62419,38.62003,-87.98542,Calhoun,230,Richland
62420,39.29042,-88.00198,Casey,4762,Cumberland
62421,38.7536,-87.94355,Claremont,660,Richland
62422,39.23882,-88.88322,Cowden,1002,Shelby
62423,39.46168,-87.57963,Dennison,485,Clark
62424,38.98978,-88.42215,Dieterich,2445,Effingham
62425,38.82851,-88.09216,Dundas,502,Richland
62426,38.90211,-88.66454,Edgewood,873,Effingham
62427,38.87209,-87.65935,Flat Rock,1690,Crawford
62428,39.26363,-88.13124,Greenup,2803,Cumberland
62431,39.22885,-88.99105,Herrick,1054,Shelby
62432,39.13551,-88.13981,Hidalgo,417,Jasper
62433,39.11193,-87.70355,Hutsonville,927,Crawford
62434,38.84322,-88.3252,Ingraham,327,Clay
62436,39.17982,-88.25247,Jewett,697,Cumberland
62438,39.32114,-88.86922,Lakewood,300,Shelby
62439,38.74655,-87.63529,Lawrenceville,7166,Lawrence
62440,39.39549,-88.2679,Lerna,1315,Coles
62441,39.3976,-87.69763,Marshall,6786,Clark
62442,39.31182,-87.85501,Martinsville,2814,Clark
62443,38.9541,-88.62797,Mason,1678,Effingham
62444,39.27655,-88.7393,Mode,331,Shelby
62445,39.16804,-88.32117,Montrose,1290,Cumberland
62446,38.49745,-88.2179,Mount Erie,342,Wayne
62447,39.31551,-88.44439,Neoga,3615,Cumberland
62448,38.96892,-88.18259,Newton,5565,Jasper
62449,39.00623,-87.91067,Oblong,3118,Crawford
62450,38.71233,-88.09042,Olney,12230,Richland
62451,38.99257,-87.60616,Palestine,2041,Crawford
62452,38.5862,-88.01722,Parkersburg,421,Richland
62454,38.99864,-87.75803,Robinson,11088,Crawford
62458,39.02467,-88.85144,Saint Elmo,1979,Fayette
62459,38.93002,-88.02779,Sainte Marie,341,Jasper
62460,38.60842,-87.69831,Saint Francisville,1154,Lawrence
62461,39.19732,-88.67572,Shumway,672,Effingham
62462,39.23471,-88.46388,Sigel,982,Shelby
62463,39.27666,-88.60537,Stewardson,1242,Shelby
62465,39.3494,-88.64047,Strasburg,964,Shelby
62466,38.72579,-87.84971,Sumner,4598,Lawrence
62467,39.13119,-88.43499,Teutopolis,4281,Effingham
62468,39.27744,-88.27032,Toledo,2514,Cumberland
62469,39.34857,-88.34046,Trilla,610,Cumberland
62471,38.9546,-89.13061,Vandalia,10363,Fayette
62473,39.02035,-88.56542,Watson,1443,Effingham
62474,39.43662,-87.99649,Westfield,970,Clark
62475,38.88697,-88.05151,West Liberty,445,Jasper
62476,38.53402,-88.00926,West Salem,1590,Edwards
62477,39.23693,-87.66289,West Union,781,Clark
62478,39.17838,-87.74266,West York,389,Crawford
62479,39.03773,-88.31093,Wheeler,935,Jasper
62480,38.99856,-88.00156,Willow Hill,470,Jasper
62481,39.12718,-88.022,Yale,430,Jasper
62501,39.93397,-88.80519,Argenta,2863,Macon
62510,39.53149,-89.02694,Assumption,1538,Christian
62512,40.14496,-89.20355,Beason,446,Logan
62513,39.72201,-89.1508,Blue Mound,1767,Macon
62514,39.76249,-89.05069,Boody,181,Macon
62515,39.85842,-89.37649,Buffalo,1010,Sangamon
62517,39.59129,-89.43167,Bulpitt,199,Christian
62518,40.05416,-89.19143,Chestnut,176,Logan
62519,39.92882,-89.39528,Cornland,61,Logan
62520,39.81803,-89.45599,Dawson,1637,Sangamon
62521,39.81509,-88.92533,Decatur,35529,Macon
62522,39.82902,-89.05106,Decatur,15261,Macon
62523,39.84408,-88.95224,Decatur,1439,Macon
62526,39.90152,-88.98791,Decatur,32303,Macon
62530,39.56175,-89.66135,Divernon,1458,Sangamon
62531,39.66693,-89.37664,Edinburg,1764,Christian
62532,39.76334,-88.98924,Elwin,110,Macon
62533,39.44423,-89.62251,Farmersville,778,Montgomery
62534,39.53444,-88.79858,Findlay,1389,Shelby
62535,39.92477,-88.96895,Forsyth,3003,Macon
62536,39.63015,-89.65132,Glenarm,749,Sangamon
62537,39.85317,-89.09467,Harristown,76,Macon
62538,39.35641,-89.51992,Harvel,359,Montgomery
62539,39.86605,-89.25127,Illiopolis,1297,Sangamon
62540,39.58387,-89.41826,Kincaid,1567,Christian
62541,39.96541,-89.35509,Lake Fork,37,Logan
62543,39.97146,-89.15219,Latham,531,Logan
62544,39.70642,-88.96787,Macon,1597,Macon
62545,39.76189,-89.38943,Mechanicsburg,1169,Sangamon
62546,39.43186,-89.43994,Morrisonville,1624,Christian
62547,39.76896,-89.24887,Mount Auburn,926,Christian
62548,39.9785,-89.28226,Mount Pulaski,2514,Logan
62549,39.7705,-88.86588,Mt Zion,6264,Macon
62550,39.61145,-88.99191,Moweaqua,2778,Shelby
62551,39.85317,-89.15765,Niantic,575,Macon
62553,39.26618,-89.10718,Oconee,515,Shelby
62554,39.94902,-88.87146,Oreana,1311,Macon
62555,39.46629,-89.22064,Owaneco,423,Christian
62556,39.46989,-89.37326,Palmer,326,Christian
62557,39.39704,-89.10481,Pana,7118,Christian
62558,39.58971,-89.54037,Pawnee,3347,Sangamon
62560,39.30224,-89.60114,Raymond,1196,Montgomery
62561,39.86626,-89.50869,Riverton,5350,Sangamon
62563,39.71567,-89.50299,Rochester,5689,Sangamon
62565,39.41129,-88.80426,Shelbyville,7024,Shelby
62567,39.64523,-89.18987,Stonington,1035,Christian
62568,39.56083,-89.29022,Taylorville,15787,Christian
62570,39.58848,-89.4483,Tovey,514,Christian
62571,39.38067,-88.96114,Tower Hill,1659,Shelby
62572,39.36096,-89.70156,Waggoner,516,Montgomery
62573,39.94539,-89.07414,Warrensburg,1912,Macon
62601,39.74871,-90.04087,Alexander,353,Morgan
62610,39.55883,-90.43489,Alsey,125,Scott
62611,39.88561,-90.39943,Arenzville,1115,Cass
62612,39.88951,-90.06703,Ashland,1799,Cass
62613,39.99171,-89.66842,Athens,3886,Menard
62615,39.58507,-89.75736,Auburn,5712,Sangamon
62617,40.1525,-90.17886,Bath,669,Mason
62618,39.98678,-90.40075,Beardstown,7398,Cass
62621,39.73139,-90.53016,Bluffs,1195,Scott
62622,39.97814,-90.35343,Bluff Springs,71,Cass
62624,40.15441,-90.36213,Browning,463,Schuyler
62625,39.91027,-89.69575,Cantrall,822,Sangamon
62626,39.28333,-89.88404,Carlinville,7710,Macoupin
62627,40.0563,-90.12895,Chandlerville,1029,Cass
62628,39.77949,-90.40322,Chapin,766,Morgan
62629,39.67824,-89.714,Chatham,13736,Sangamon
62630,39.26081,-90.07835,Chesterfield,365,Macoupin
62631,39.82437,-90.36129,Concord,273,Morgan
62633,40.22644,-89.8768,Easton,566,Mason
62634,40.01314,-89.45199,Elkhart,775,Logan
62635,40.29671,-89.47141,Emden,705,Logan
62638,39.60534,-90.08179,Franklin,1364,Morgan
62639,40.04264,-90.488,Frederick,291,Schuyler
62640,39.43389,-89.80528,Girard,3583,Macoupin
62642,40.08905,-89.71348,Greenview,1479,Menard
62643,40.243,-89.45175,Hartsburg,561,Logan
62644,40.28956,-90.05432,Havana,4946,Mason
62649,39.36532,-90.06746,Hettick,604,Macoupin
62650,39.73455,-90.22337,Jacksonville,26749,Morgan
62655,40.16538,-89.99405,Kilbourne,460,Mason
62656,40.13988,-89.37163,Lincoln,19535,Logan
62661,39.66569,-89.84044,Loami,1537,Sangamon
62663,39.54073,-90.32902,Manchester,259,Scott
62664,40.21229,-89.72528,Mason City,3061,Mason
62665,39.81719,-90.53393,Meredosia,1359,Morgan
62666,40.08561,-89.54345,Middletown,613,Logan
62667,39.49452,-89.99269,Modesto,445,Macoupin
62668,39.5723,-90.23794,Murrayville,1251,Morgan
62670,39.74137,-89.8939,New Berlin,2883,Sangamon
62671,40.17291,-89.55846,New Holland,487,Logan
62672,39.39798,-89.80446,Nilwood,204,Macoupin
62673,40.09471,-89.97845,Oakford,466,Menard
62674,39.43469,-90.0299,Palmyra,1398,Macoupin
62675,40.0219,-89.85914,Petersburg,5869,Menard
62677,39.84986,-89.87912,Pleasant Plains,2269,Sangamon
62681,40.13621,-90.55884,Rushville,5552,Schuyler
62682,40.29219,-89.63596,San Jose,986,Mason
62684,39.9093,-89.58688,Sherman,5861,Sangamon
62685,39.14157,-90.0035,Shipman,2416,Macoupin
62688,39.946,-89.92313,Tallula,602,Menard
62689,39.53364,-89.76185,Thayer,503,Sangamon
62690,39.50535,-89.76315,Virden,3991,Macoupin
62691,39.95915,-90.21439,Virginia,1978,Cass
62692,39.58137,-89.9399,Waverly,2122,Morgan
62693,39.95827,-89.51725,Williamsville,1510,Sangamon
62694,39.62158,-90.47134,Winchester,3038,Scott
62695,39.62711,-90.2237,Woodson,216,Morgan
62701,39.80082,-89.64884,Springfield,1206,Sangamon
62702,39.82401,-89.64168,Springfield,34051,Sangamon
62703,39.7618,-89.62982,Springfield,30910,Sangamon
62704,39.774,-89.68514,Springfield,40828,Sangamon
62707,39.85438,-89.65439,Springfield,6924,Sangamon
62711,39.76543,-89.72925,Springfield,16752,Sangamon
62712,39.75326,-89.58013,Springfield,10243,Sangamon
62801,38.51277,-89.14168,Centralia,21444,Marion
62803,38.45286,-89.29657,Hoyleton,1078,Washington
62806,38.38188,-88.07484,Albion,3351,Edwards
62807,38.7455,-88.92837,Alma,702,Marion
62808,38.30206,-89.1875,Ashley,1438,Washington
62809,38.27909,-88.33991,Barnhill,144,Wayne
62810,38.20311,-88.74559,Belle Rive,834,Jefferson
62811,38.3831,-87.90555,Bellmont,227,Wabash
62812,37.99769,-88.91698,Benton,10905,Franklin
62814,38.37831,-88.73183,Bluford,1945,Jefferson
62815,38.45711,-87.98703,Bone Gap,287,Edwards
62816,38.18579,-88.92389,Bonnie,1198,Jefferson
62817,37.95349,-88.47808,Broughton,459,Hamilton
62818,38.3833,-87.96534,Browns,263,Edwards
62819,37.97952,-89.01496,Buckner,408,Franklin
62820,38.24345,-88.23472,Burnt Prairie,152,White
62821,38.0734,-88.13265,Carmi,7175,White
62822,37.97774,-89.05655,Christopher,3091,Franklin
62823,38.51962,-88.43943,Cisne,1700,Wayne
62824,38.67114,-88.34651,Clay City,1711,Clay
62825,37.99837,-89.06789,Coello,203,Franklin
62827,38.16914,-88.04315,Crossville,1175,White
62828,38.19416,-88.60679,Dahlgren,1334,Hamilton
62829,37.9762,-88.48732,Dale,0,Hamilton
62830,38.44685,-88.96332,Dix,1245,Jefferson
62831,38.23068,-89.22126,Du Bois,412,Washington
62832,38.01222,-89.24993,Du Quoin,8848,Perry
62833,38.36122,-88.16051,Ellery,371,Wayne
62835,38.10687,-88.32027,Enfield,993,White
62836,38.09036,-88.80084,Ewing,800,Franklin
62837,38.368,-88.35644,Fairfield,8960,Wayne
62838,38.87286,-88.75551,Farina,1816,Fayette
62839,38.66518,-88.49902,Flora,6397,Clay
62841,37.85938,-89.00024,Freeman Spur,131,Williamson
62842,38.47081,-88.37313,Geff,721,Wayne
62843,38.38219,-88.19612,Golden Gate,123,Wayne
62844,38.25815,-88.04624,Grayville,2186,White
62846,38.1464,-88.87036,Ina,2704,Jefferson
62848,38.43659,-89.16482,Irvington,716,Washington
62849,38.58705,-88.77353,Iuka,2100,Marion
62850,38.49529,-88.59102,Johnsonville,359,Wayne
62851,38.4207,-88.66193,Keenes,162,Wayne
62852,38.35007,-87.86688,Keensburg,61,Wabash
62853,38.51466,-88.91268,Kell,987,Marion
62854,38.76796,-88.80659,Kinmundy,1716,Marion
62856,37.95748,-88.8362,Logan,391,Franklin
62858,38.81473,-88.49329,Louisville,2790,Clay
62859,38.07612,-88.53394,Mc Leansboro,5829,Hamilton
62860,38.04084,-88.72454,Macedonia,546,Franklin
62861,38.03196,-88.02854,Maunie,165,White
62862,38.21732,-88.29612,Mill Shoals,330,White
62863,38.41648,-87.85594,Mount Carmel,9824,Wabash
62864,38.33121,-88.90262,Mount Vernon,23586,Jefferson
62865,37.97199,-89.07877,Mulkeytown,1977,Franklin
62867,37.91634,-88.10767,New Haven,506,Gallatin
62868,38.6838,-88.22853,Noble,1735,Richland
62869,37.96205,-88.28114,Norris City,2690,White
62870,38.63491,-89.05107,Odin,2090,Marion
62871,37.87593,-88.26827,Omaha,579,Gallatin
62872,38.26642,-88.80382,Opdyke,1067,Jefferson
62874,37.91939,-88.97568,Orient,415,Franklin
62875,38.75913,-89.12131,Patoka,1253,Marion
62876,38.27642,-89.19576,Radom,159,Washington
62877,38.39041,-89.21309,Richview,575,Washington
62878,38.57865,-88.50857,Rinard,443,Wayne
62879,38.76504,-88.36079,Sailor Springs,117,Clay
62880,38.86694,-88.88442,Saint Peter,706,Fayette
62881,38.63515,-88.92853,Salem,10842,Marion
62882,38.6353,-89.12008,Sandoval,2387,Marion
62883,38.16327,-89.11503,Scheller,899,Jefferson
62884,38.08223,-89.0564,Sesser,2716,Franklin
62885,38.85768,-89.05495,Shobonier,722,Fayette
62886,38.37892,-88.53984,Sims,280,Wayne
62887,38.18739,-88.35993,Springerton,459,White
62888,38.12849,-89.23479,Tamaroa,1984,Perry
62889,38.45812,-88.82922,Texico,938,Jefferson
62890,37.90642,-88.73757,Thompsonville,2789,Franklin
62891,38.01516,-89.04304,Valier,653,Franklin
62892,38.80667,-89.07817,Vernon,374,Marion
62893,38.46707,-89.03286,Walnut Hill,992,Marion
62894,38.20909,-89.03692,Waltonville,1061,Jefferson
62895,38.31008,-88.56344,Wayne City,2028,Wayne
62896,37.89101,-88.91635,West Frankfort,12167,Franklin
62897,38.09632,-88.90228,Whittington,362,Franklin
62898,38.35053,-89.06476,Woodlawn,2285,Jefferson
62899,38.63194,-88.64567,Xenia,1900,Clay
62901,37.73828,-89.20843,Carbondale,26217,Jackson
62902,37.66361,-89.11727,Carbondale,4568,Jackson
62903,37.6704,-89.27781,Carbondale,3211,Jackson
62905,37.57397,-89.36521,Alto Pass,505,Union
62906,37.45662,-89.18699,Anna,6585,Union
62907,37.86683,-89.49815,Ava,1995,Jackson
62908,37.30845,-88.8658,Belknap,496,Massac
62910,37.15411,-88.53338,Brookport,2365,Massac
62912,37.47662,-89.03917,Buncombe,1338,Johnson
62914,37.06547,-89.22248,Cairo,2738,Alexander
62915,37.78342,-89.11971,Cambria,425,Williamson
62916,37.9286,-89.56424,Campbell Hill,993,Jackson
62917,37.69809,-88.64884,Carrier Mills,2275,Saline
62918,37.78997,-89.08766,Carterville,10155,Williamson
62919,37.52073,-88.14891,Cave In Rock,1052,Hardin
62920,37.54896,-89.23501,Cobden,3354,Union
62921,37.80156,-89.08424,Colp,394,Williamson
62922,37.62104,-88.81596,Creal Springs,2532,Williamson
62923,37.34435,-89.01472,Cypress,481,Johnson
62924,37.82388,-89.20467,De Soto,2948,Jackson
62926,37.36736,-89.1339,Dongola,2402,Union
62927,37.93531,-89.24159,Dowell,383,Jackson
62928,37.48287,-88.57914,Eddyville,183,Pope
62930,37.83822,-88.44115,Eldorado,6074,Saline
62931,37.52852,-88.28678,Elizabethtown,1445,Hardin
62932,37.90344,-89.21404,Elkville,1498,Jackson
62933,37.77273,-89.025,Energy,1385,Williamson
62934,37.70463,-88.3643,Equality,902,Gallatin
62935,37.8412,-88.63383,Galatia,1799,Saline
62938,37.3802,-88.54269,Golconda,3027,Pope
62939,37.5512,-88.98147,Goreville,3111,Johnson
62940,37.73168,-89.47209,Gorham,340,Jackson
62941,37.24447,-88.98071,Grand Chain,895,Pulaski
62942,37.64347,-89.46919,Grand Tower,558,Jackson
62943,37.35642,-88.74771,Grantsburg,360,Pope
62946,37.70725,-88.53816,Harrisburg,12662,Saline
62947,37.56343,-88.44001,Herod,449,Hardin
62948,37.81685,-89.02953,Herrin,13183,Williamson
62949,37.82788,-89.14438,Hurst,833,Williamson
62950,37.75545,-89.56041,Jacob,204,Jackson
62951,37.8235,-88.92917,Johnston City,4535,Williamson
62952,37.41825,-89.33719,Jonesboro,3141,Union
62953,37.20837,-88.84999,Joppa,313,Massac
62954,37.69118,-88.27478,Junction,475,Gallatin
62956,37.27993,-88.94233,Karnak,911,Pulaski
62957,37.3079,-89.42669,Mc Clure,931,Alexander
62958,37.59972,-89.1659,Makanda,2146,Jackson
62959,37.71804,-88.90775,Marion,28201,Williamson
62960,37.22607,-88.71073,Metropolis,10959,Massac
62961,37.34028,-89.25519,Millcreek,51,Union
62962,37.07376,-89.335,Miller City,9,Alexander
62963,37.09396,-89.16201,Mound City,653,Pulaski
62964,37.12854,-89.21531,Mounds,1291,Pulaski
62965,37.76708,-88.52022,Muddy,88,Saline
62966,37.77508,-89.35108,Murphysboro,15260,Jackson
62967,37.58044,-88.75181,New Burnside,237,Johnson
62969,37.15795,-89.34349,Olive Branch,398,Alexander
62970,37.21477,-89.09963,Olmsted,819,Pulaski
62972,37.53704,-88.79134,Ozark,1039,Johnson
62974,37.77736,-88.78467,Pittsburg,1626,Williamson
62975,37.6375,-89.37774,Pomona,325,Jackson
62976,37.21897,-89.20552,Pulaski,361,Pulaski
62977,37.85397,-88.5449,Raleigh,744,Saline
62979,37.8161,-88.19181,Ridgway,1134,Gallatin
62982,37.42811,-88.35961,Rosiclare,960,Hardin
62983,37.90497,-89.11722,Royalton,1411,Franklin
62984,37.71038,-88.15479,Shawneetown,1643,Gallatin
62985,37.46088,-88.68961,Simpson,712,Johnson
62987,37.61677,-88.65417,Stonefort,1424,Saline
62988,37.24395,-89.29747,Tamms,1570,Alexander
62990,37.23092,-89.40643,Thebes,810,Alexander
62992,37.27901,-89.16661,Ullin,690,Pulaski
62994,37.90778,-89.34075,Vergennes,625,Jackson
62995,37.42597,-88.87523,Vienna,5928,Johnson
62996,37.16306,-89.15429,Villa Ridge,464,Pulaski
62997,37.98225,-89.59039,Willisville,598,Perry
62998,37.51587,-89.4474,Wolf Lake,323,Union
62999,37.8917,-89.05257,Zeigler,1794,Franklin
